City_ID,City,Lat,Lng,Max Temp,Humidity,Cloudiness,Wind Speed,Country,Date
0,airai,-8.9266,125.4092,21.25,48,24,2.23,TL,1690683077
1,keansburg,40.4418,-74.1299,26.829999999999984,83,1,2.68,US,1690683077
2,normandin,48.8333,-72.5321,11.220000000000027,76,95,2.06,CA,1690683077
3,vaini,-21.2,-175.2,23.24000000000001,60,20,5.14,TO,1690683078
4,mahebourg,-20.4081,57.7,22.50999999999999,78,40,4.12,MU,1690683078
5,hermanus,-34.4187,19.2345,9.480000000000018,71,67,7.62,ZA,1690683078
6,ushuaia,-54.8,-68.3,0.9599999999999795,60,40,10.29,AR,1690683078
7,busselton,-33.65,115.3333,14.899999999999977,78,100,1.7,AU,1690683079
8,touros,-5.1989,-35.4608,24.29000000000002,90,7,5.13,BR,1690682907
9,andenes,69.3143,16.1194,11.779999999999973,82,100,5.66,NO,1690683079
10,georgetown,5.4112,100.3354,30.120000000000005,79,20,1.54,MY,1690683001
11,mar del plata,-38.0023,-57.5575,12.980000000000018,80,0,8.23,AR,1690683079
12,upernavik,72.7868,-56.1549,4.2099999999999795,87,35,1.18,GL,1690683080
13,ust-nera,64.5667,143.2,13.360000000000014,74,98,2.81,RU,1690683080
14,castro,-24.7911,-50.0119,10.579999999999984,92,99,2.38,BR,1690683080
15,fairbanks,64.8378,-147.7164,24.149999999999977,60,40,5.66,US,1690683080
16,tual,-5.6667,132.75,26.05000000000001,82,82,8.47,ID,1690683080
17,bilma,18.6853,12.9164,33.089999999999975,23,0,3.57,NE,1690683081
18,hami,42.8,93.45,30.730000000000018,22,100,4.29,CN,1690683081
19,torbay,47.6666,-52.7314,19.529999999999973,95,100,8.04,CA,1690683081
20,qaanaaq,77.484,-69.3632,6.389999999999986,86,92,0.39,GL,1690683081
21,kaitangata,-46.2817,169.8464,11.689999999999998,64,90,1.71,NZ,1690683081
22,mataura,-46.1927,168.8643,14.300000000000011,67,17,1.35,NZ,1690683082
23,lehigh acres,26.6254,-81.6248,30.120000000000005,90,0,1.54,US,1690682804
24,tuktoyaktuk,69.4541,-133.0374,17.589999999999975,53,6,5.72,CA,1690683082
25,filadelfia,39.9523,-75.1638,26.649999999999977,80,20,7.2,US,1690682798
26,faanui,-16.4833,-151.75,26.639999999999986,72,65,7.38,PF,1690683083
27,atuona,-9.8,-139.0333,26.370000000000005,71,10,10.59,PF,1690682783
28,aklavik,68.2191,-135.0107,27.95999999999998,38,9,4.12,CA,1690683083
29,catamarca,-28.4696,-65.7852,18.360000000000014,47,2,0.89,AR,1690683083
30,pisco,-13.7,-76.2167,19.180000000000007,82,75,4.63,PE,1690683083
31,saint-philippe,-21.3585,55.7679,18.920000000000016,73,33,3.84,RE,1690683084
32,albany,42.6001,-73.9662,17.670000000000016,91,59,3.19,US,1690682867
33,bluff,-46.6,168.3333,14.480000000000018,72,36,3.47,NZ,1690683084
34,zhoucheng,35.9122,116.3117,25.94999999999999,92,100,7.33,CN,1690683084
35,marsa matruh,31.3525,27.2453,25.910000000000025,82,0,6.05,EG,1690683084
36,koumac,-20.5667,164.2833,23.0,48,8,4.95,NC,1690683085
37,rikitea,-23.1203,-134.9692,21.360000000000014,60,98,10.49,PF,1690683085
38,punta arenas,-53.15,-70.9167,1.0299999999999727,71,54,8.04,CL,1690683085
39,itarema,-2.9248,-39.9167,25.69999999999999,81,8,6.24,BR,1690683085
40,asheville,35.6009,-82.554,22.139999999999986,90,40,4.63,US,1690682922
41,kiunga,-6.1219,141.2906,27.519999999999982,74,93,2.12,PG,1690683086
42,zhanaozen,43.3,52.8,24.70999999999998,52,0,7.83,KZ,1690683087
43,ust-ilimsk,58.0006,102.6619,17.629999999999995,98,100,4.28,RU,1690683087
44,culebra,18.303,-65.301,29.19999999999999,88,100,4.92,PR,1690683087
45,rocha,-34.4833,-54.3333,5.930000000000007,91,14,3.35,UY,1690682846
46,carnarvon,-24.8667,113.6333,18.060000000000002,47,0,5.36,AU,1690683088
47,oblivskaya,48.5362,42.5014,16.00999999999999,71,0,3.89,RU,1690683088
48,ngunguru,-35.6167,174.5,15.079999999999984,56,71,0.76,NZ,1690683088
49,qasigiannguit,68.8193,-51.1922,3.2900000000000205,95,100,0.69,GL,1690683088
50,lodwar,3.1191,35.5973,25.399999999999977,59,21,4.91,KE,1690683089
51,tuatapere,-46.1333,167.6833,12.75,72,10,2.36,NZ,1690683089
52,surt,31.2089,16.5887,28.75,44,0,3.04,LY,1690683089
53,wloszczowa,50.8526,19.9659,18.149999999999977,93,100,4.01,PL,1690683089
54,atar,20.5169,-13.0499,33.85000000000002,32,98,3.68,MR,1690683090
55,coihaique,-45.5752,-72.0662,4.970000000000027,95,100,4.5,CL,1690683090
56,cape town,-33.9258,18.4232,10.20999999999998,77,40,3.09,ZA,1690683090
57,provideniya,64.3833,-173.3,9.870000000000005,96,100,3.09,RU,1690683090
58,saskylakh,71.9167,114.0833,19.920000000000016,38,99,4.51,RU,1690683091
59,lakhdenpokhya,61.5198,30.1992,14.620000000000005,97,100,3.56,RU,1690683091
60,barrow,71.2906,-156.7887,12.160000000000025,76,100,2.57,US,1690682807
61,butaritari,3.0707,172.7902,29.689999999999998,72,93,5.45,KI,1690683091
62,abatskoye,56.2875,70.4555,18.45999999999998,82,15,4.36,RU,1690683092
63,praia da vitoria,38.7333,-27.0667,21.680000000000007,90,42,3.73,PT,1690683092
64,bredasdorp,-34.5322,20.0403,7.860000000000014,87,67,4.5,ZA,1690683092
65,dunedin,-45.8742,170.5036,13.370000000000005,58,95,1.34,NZ,1690682990
66,kodiak,57.79,-152.4072,15.879999999999995,82,100,3.6,US,1690683092
67,vila,42.0304,-8.1588,13.870000000000005,92,85,1.48,PT,1690683092
68,beloha,-25.1667,45.05,15.319999999999993,63,0,2.84,MG,1690683093
69,hilo,19.7297,-155.09,31.970000000000027,62,0,3.13,US,1690683093
70,victoria,22.2855,114.1577,31.95999999999998,85,97,0.45,HK,1690682528
71,port elizabeth,-33.918,25.5701,9.310000000000002,93,100,13.89,ZA,1690683093
72,bengkulu,-3.8004,102.2655,26.220000000000027,87,96,3.68,ID,1690683094
73,paoua,7.2427,16.4406,20.160000000000025,97,100,1.74,CF,1690682845
74,brae,60.3964,-1.353,13.25,96,98,3.32,GB,1690683094
75,hobart,-42.8794,147.3294,16.069999999999993,51,75,11.83,AU,1690683094
76,new norfolk,-42.7826,147.0587,15.870000000000005,79,99,5.53,AU,1690683094
77,baza,37.4907,-2.7726,27.05000000000001,34,0,1.35,ES,1690683095
78,matara,5.9485,80.5353,27.399999999999977,81,46,5.92,LK,1690683095
79,dingle,10.9995,122.6711,26.470000000000027,88,100,4.11,PH,1690683095
80,jinchang,38.4953,102.1739,24.05000000000001,56,0,4.22,CN,1690683095
81,kavieng,-2.5744,150.7967,29.029999999999973,71,10,3.31,PG,1690683095
82,bambous virieux,-20.3428,57.7575,22.49000000000001,78,40,4.12,MU,1690683095
83,hofn,64.2539,-15.2082,10.420000000000016,86,100,4.55,IS,1690683096
84,khatanga,71.9667,102.5,27.649999999999977,33,34,7.29,RU,1690683096
85,avarua,-21.2078,-159.775,24.180000000000007,94,75,2.57,CK,1690683096
86,olinda,-8.0089,-34.8553,26.0,83,75,3.09,BR,1690683096
87,zharkent,44.1628,80.0,27.389999999999986,26,0,2.14,KZ,1690683096
88,san quintin,30.4833,-115.95,22.44999999999999,78,24,2.82,MX,1690683097
89,okahandja,-21.9833,16.9167,2.1000000000000227,48,0,2.23,NA,1690683097
90,luderitz,-26.6481,15.1594,11.20999999999998,71,0,4.83,NA,1690683097
91,kenai,60.5544,-151.2583,17.19999999999999,88,100,2.06,US,1690683097
92,aswan,24.0934,32.907,31.75999999999999,25,0,2.06,EG,1690683098
93,mitu,1.1983,-70.1733,22.519999999999982,98,100,0.51,CO,1690682993
94,souillac,-20.5167,57.5167,22.360000000000014,78,40,4.12,MU,1690683098
95,bratsk,56.1325,101.6142,19.420000000000016,77,69,5.84,RU,1690683098
96,lavrentiya,65.5833,-171.0,12.069999999999993,77,33,5.21,RU,1690683098
97,mumford,5.2618,-0.759,24.329999999999984,91,100,3.25,GH,1690683099
98,ponta do sol,32.6667,-17.1,24.5,78,0,0.79,PT,1690683099
99,san cristobal,7.7669,-72.225,25.25,96,19,1.51,VE,1690683099
100,tommot,58.9564,126.2925,23.649999999999977,49,0,1.31,RU,1690683100
101,krasnoselkup,65.7,82.4667,22.54000000000002,67,9,1.42,RU,1690683100
102,altay,47.8667,88.1167,21.850000000000023,43,0,2.02,CN,1690683100
103,dakar,14.6937,-17.4441,25.639999999999986,82,100,4.84,SN,1690683100
104,kapaa,22.0752,-159.319,29.139999999999986,82,75,6.17,US,1690683100
105,korla,41.7597,86.1469,25.060000000000002,47,100,4.6,CN,1690683100
106,port blair,11.6667,92.75,28.170000000000016,83,100,6.69,IN,1690683101
107,timra,62.487,17.3257,11.970000000000027,100,17,1.54,SE,1690683101
108,wakkanai,45.4094,141.6739,20.939999999999998,95,100,7.83,JP,1690683101
109,krutikha,53.9599,81.2093,19.410000000000025,85,22,4.06,RU,1690683101
110,shivrajpur,22.4167,73.65,25.129999999999995,91,100,4.45,IN,1690683101
111,puerto ayora,-0.7393,-90.3518,24.899999999999977,94,37,0.89,EC,1690683102
112,palmer,42.1584,-72.3287,20.899999999999977,84,20,4.12,US,1690683102
113,reims,49.1667,4.0833,17.560000000000002,100,100,0.51,FR,1690683102
114,talaya,61.3833,152.75,15.300000000000011,58,100,3.6,RU,1690683102
115,norman wells,65.282,-126.8329,27.810000000000002,30,27,3.46,CA,1690683102
116,ilulissat,69.2167,-51.1,3.160000000000025,100,100,1.54,GL,1690683103
117,namatanai,-3.6667,152.4333,29.69999999999999,69,41,2.08,PG,1690683103
118,ust-kuyga,70.0167,135.6,7.230000000000018,60,100,7.37,RU,1690683103
119,paluan,13.416,120.4623,28.100000000000023,79,100,4.59,PH,1690683103
120,port alfred,-33.5906,26.891,12.360000000000014,84,100,21.98,ZA,1690683104
121,bulungu,-4.55,18.6,23.899999999999977,44,0,0.35,CD,1690683104
122,zhongshu,24.5167,103.7667,22.50999999999999,80,74,1.32,CN,1690683104
123,ribeira grande,38.5167,-28.7,21.139999999999986,90,11,3.58,PT,1690682817
124,shingu,33.7333,135.9833,30.339999999999975,66,37,2.58,JP,1690683104
125,ancud,-41.8697,-73.8203,10.79000000000002,89,100,6.4,CL,1690683105
126,san patricio,28.017,-97.5169,30.24000000000001,67,11,5.75,US,1690683105
127,arraial do cabo,-22.9661,-42.0278,20.160000000000025,68,100,4.0,BR,1690682932
128,okato,-39.2,173.8833,9.420000000000016,74,55,1.39,NZ,1690683105
129,rafaela,-31.2503,-61.4867,14.029999999999973,50,99,2.68,AR,1690683012
130,cedar city,37.6775,-113.0619,27.689999999999998,31,0,8.75,US,1690683040
131,port lincoln,-34.7333,135.8667,16.420000000000016,68,100,8.04,AU,1690683106
132,fortuna,40.5982,-124.1573,18.439999999999998,76,100,5.66,US,1690683099
133,kenora,49.8167,-94.4337,15.970000000000027,58,23,2.08,CA,1690683088
134,chuy,-33.6971,-53.4616,8.069999999999993,90,11,3.43,UY,1690683102
135,cabanas,22.9758,-82.9219,27.430000000000007,84,99,4.33,CU,1690683106
136,dikson,73.5069,80.5464,2.5400000000000205,99,100,6.37,RU,1690683107
137,dasoguz,41.8363,59.9666,29.850000000000023,27,44,0.49,TM,1690683107
138,saint-georges,12.0564,-61.7485,27.589999999999975,77,100,5.32,GD,1690682950
139,duncan,34.5023,-97.9578,33.089999999999975,49,0,3.6,US,1690683107
140,isangel,-19.55,169.2667,21.75,55,90,5.17,VU,1690683107
141,cabo san lucas,22.8909,-109.9124,33.81999999999999,63,0,5.14,MX,1690682881
142,panzhihua,26.5851,101.7128,26.0,72,45,0.29,CN,1690683108
143,abha,18.2164,42.5053,20.29000000000002,43,0,0.0,SA,1690682863
144,coahuayana,18.7333,-103.6833,27.810000000000002,82,0,0.97,MX,1690683108
145,meulaboh,4.1363,96.1285,25.589999999999975,88,54,2.15,ID,1690683108
146,mokolo,10.7398,13.8019,22.19999999999999,84,100,1.47,CM,1690683109
147,novobirilyussy,56.9514,90.6661,17.870000000000005,86,100,2.83,RU,1690683075
148,sistranda,63.7256,8.834,11.129999999999995,88,1,6.61,NO,1690683109
149,lobito,-12.3481,13.5456,18.69999999999999,85,90,1.72,AO,1690683109
150,yellowknife,62.456,-114.3525,18.560000000000002,74,89,3.08,CA,1690683110
151,jamestown,42.097,-79.2353,17.939999999999998,96,0,1.54,US,1690683110
152,poya,-21.35,165.15,23.600000000000023,46,13,5.18,NC,1690683110
153,banda aceh,5.5577,95.3222,29.170000000000016,69,93,6.48,ID,1690683038
154,kyabe,9.4515,18.9449,23.319999999999993,88,100,0.7,TD,1690683110
155,naze,28.3667,129.4833,27.230000000000018,82,91,5.79,JP,1690683110
156,vila franca do campo,37.7167,-25.4333,22.379999999999995,93,4,1.2,PT,1690683111
157,hailar,49.2,119.7,26.610000000000014,47,0,3.17,CN,1690683111
158,batagay,67.6333,134.6333,12.569999999999993,39,26,5.0,RU,1690683111
159,gogrial,8.5332,28.1004,24.019999999999982,86,100,1.91,SS,1690683111
160,nhulunbuy,-12.2333,136.7667,27.49000000000001,69,75,6.17,AU,1690683112
161,gimli,50.6336,-96.9907,20.160000000000025,56,8,1.54,CA,1690683112
162,pyay,18.8167,95.2167,27.579999999999984,87,99,4.1,MM,1690683112
163,necochea,-38.5473,-58.7368,12.449999999999989,63,100,8.13,AR,1690683112
164,saint george,37.1041,-113.5841,34.48000000000002,36,0,4.63,US,1690683112
165,fereydunshahr,32.941,50.121,15.839999999999975,30,0,2.77,IR,1690683113
166,chokwe,-24.5333,32.9833,19.80000000000001,61,22,4.14,MZ,1690683113
167,snyder,32.7179,-100.9176,34.339999999999975,21,0,3.09,US,1690683113
168,show low,34.2542,-110.0298,28.310000000000002,26,0,0.0,US,1690683113
169,beterou,9.1992,2.2586,22.75,98,99,1.5,BJ,1690683113
170,sao filipe,14.8961,-24.4956,25.189999999999998,76,41,2.68,CV,1690683114
171,ballina,-28.8667,153.5667,24.470000000000027,49,0,1.64,AU,1690683114
172,sanjo,37.6167,138.95,33.94,64,77,3.02,JP,1690683114
173,durango,24.8333,-104.8333,18.829999999999984,52,36,2.1,MX,1690682978
174,tiksi,71.6872,128.8694,3.170000000000016,84,62,5.08,RU,1690683114
175,constitucion,-35.3333,-72.4167,13.129999999999995,90,100,2.89,CL,1690683115
176,srednekolymsk,67.45,153.6833,13.180000000000007,42,93,4.39,RU,1690683115
177,nikolskoye,59.7035,30.7861,15.600000000000023,92,100,2.97,RU,1690683115
178,dwarka,22.2394,68.9678,27.810000000000002,82,100,9.41,IN,1690683115
179,port hardy,50.6996,-127.4199,14.149999999999977,83,63,1.77,CA,1690683115
180,avera,33.194,-82.5271,26.180000000000007,87,58,1.58,US,1690683116
181,lebu,-37.6167,-73.65,12.699999999999989,97,100,1.01,CL,1690683116
182,shache,38.4167,77.2406,25.55000000000001,41,6,1.09,CN,1690683116
183,mount isa,-20.7333,139.5,27.019999999999982,34,50,4.12,AU,1690683116
184,cherskiy,68.75,161.3,7.420000000000016,74,100,2.24,RU,1690683116
185,kongoussi,13.3258,-1.5347,27.170000000000016,66,100,2.43,BF,1690683117
186,okhotsk,59.3833,143.3,13.660000000000025,91,100,2.9,RU,1690683117
187,shimoda,34.6667,138.95,35.20999999999998,68,49,4.5,JP,1690683117
188,cidreira,-30.1811,-50.2056,13.680000000000007,78,91,5.36,BR,1690683117
189,broome,42.2506,-75.833,18.420000000000016,91,100,2.57,US,1690683117
190,ahipara,-35.1667,173.1667,14.490000000000009,67,22,2.8,NZ,1690683118
191,arman,59.7,150.1667,14.050000000000011,97,100,3.49,RU,1690683118
192,henties bay,-22.116,14.2845,10.870000000000005,78,0,6.43,NA,1690683118
193,east london,-33.0153,27.9116,14.600000000000023,52,100,16.09,ZA,1690683118
194,vao,-22.6667,167.4833,19.620000000000005,63,5,5.6,NC,1690683118
195,dole,47.0833,5.5,18.75999999999999,94,0,2.06,FR,1690683119
196,talnakh,69.4865,88.3972,19.70999999999998,72,100,1.25,RU,1690683119
197,adrar,20.5022,-10.0711,32.43000000000001,25,17,6.73,MR,1690683119
198,laurel,39.0993,-76.8483,27.20999999999998,77,0,3.09,US,1690683096
199,sotouboua,8.5667,0.9833,21.970000000000027,95,100,1.2,TG,1690683119
200,moerai,-22.4333,-151.3333,23.980000000000018,74,100,9.78,PF,1690683120
201,curup,-3.4667,102.5333,22.899999999999977,94,100,0.57,ID,1690683120
202,nukus,42.4531,59.6103,26.139999999999986,36,0,0.0,UZ,1690683120
203,mount gambier,-37.8333,140.7667,13.180000000000007,86,99,6.18,AU,1690683120
204,hambantota,6.1241,81.1185,25.339999999999975,94,20,2.06,LK,1690683121
205,santa maria,-29.6842,-53.8069,8.189999999999998,90,7,1.43,BR,1690682940
206,peleduy,59.6289,112.7406,28.95999999999998,44,33,2.83,RU,1690683121
207,taganak,6.0833,118.3,30.75999999999999,74,62,4.36,PH,1690683121
208,hasaki,35.7333,140.8333,38.64999999999998,74,6,8.47,JP,1690683121
209,lenger,42.183,69.8839,24.839999999999975,21,0,0.71,KZ,1690683122
210,mandeville,18.0417,-77.5071,22.29000000000002,85,79,0.74,JM,1690683122
211,brigantine,39.4101,-74.3646,25.730000000000018,93,71,2.68,US,1690683122
212,mayumba,-3.432,10.6554,20.029999999999973,91,100,2.77,GA,1690683122
213,labuhan,-6.8844,112.2051,26.889999999999986,62,35,3.4,ID,1690683123
214,esperance,-33.8667,121.9,15.740000000000009,70,31,5.83,AU,1690683123
215,harper,4.375,-7.7169,25.29000000000002,85,100,4.36,LR,1690683123
216,vanimo,-2.6741,141.3028,30.04000000000002,64,86,1.65,PG,1690683123
217,beringovskiy,63.05,179.3167,9.990000000000009,94,100,4.59,RU,1690683123
218,kapit,2.0167,112.9333,30.430000000000007,58,84,1.05,MY,1690682962
219,pennadam,11.4,79.2333,29.170000000000016,55,100,4.71,IN,1690683124
220,las juntas,19.4167,-104.7,29.889999999999986,78,5,1.28,MX,1690683124
221,hervey bay,-25.2986,152.8535,19.70999999999998,59,12,0.91,AU,1690683124
222,coari,-4.085,-63.1414,25.74000000000001,49,12,0.55,BR,1690682839
223,saint anthony,45.0205,-93.218,23.939999999999998,61,0,3.09,US,1690683125
224,kieta,-6.2167,155.6333,27.95999999999998,82,95,1.54,PG,1690683125
225,uyuni,-20.4597,-66.825,3.680000000000007,38,0,1.13,BO,1690683125
226,bethel,41.3712,-73.414,23.319999999999993,87,20,2.57,US,1690683125
227,maldonado,-34.6667,-54.9167,10.829999999999984,86,15,3.55,UY,1690682846
228,erenhot,43.6475,111.9767,29.670000000000016,35,0,3.22,CN,1690683126
229,ugoofaaru,5.6667,73.0,28.399999999999977,74,100,5.99,MV,1690683126
230,linxia,35.6003,103.2064,22.55000000000001,46,0,0.6,CN,1690683126
231,yar-sale,66.8333,70.8333,15.740000000000009,61,7,6.43,RU,1690683126
232,longyearbyen,78.2186,15.6401,7.060000000000002,81,75,1.54,SJ,1690683127
233,outlook,51.5001,-107.0513,21.389999999999986,37,28,3.32,CA,1690683127
234,vredendal,-31.6683,18.5012,7.649999999999977,86,30,1.62,ZA,1690683127
235,straumen,63.8709,11.2999,9.149999999999977,91,99,1.92,NO,1690683127
236,kivertsi,50.8343,25.4582,17.319999999999993,92,99,3.03,UA,1690683127
237,cairns,-16.9167,145.7667,29.079999999999984,53,11,4.12,AU,1690683128
238,axim,4.8699,-2.2405,24.589999999999975,91,99,3.4,GH,1690683128
239,sovetskaya gavan,48.9723,140.2878,18.720000000000027,93,100,2.15,RU,1690683128
240,gornyak,50.9942,81.4661,22.00999999999999,58,17,6.44,RU,1690683128
241,havoysund,70.9963,24.6622,10.279999999999973,98,100,5.8,NO,1690683129
242,gat,31.61,34.7642,25.529999999999973,100,1,1.73,IL,1690683129
243,ukiah,39.1502,-123.2078,31.5,29,0,1.34,US,1690683129
244,thompson,55.7435,-97.8558,19.24000000000001,59,75,2.57,CA,1690683129
245,saint-augustin,51.226,-58.6502,11.529999999999973,93,90,2.48,CA,1690683129
246,isla vista,34.4133,-119.861,27.350000000000023,73,0,2.57,US,1690683130
247,shahreza,32.0339,51.8794,21.889999999999986,36,0,1.91,IR,1690683130
248,mayor pablo lagerenza,-19.9309,-60.7718,18.930000000000007,63,0,1.63,PY,1690683130
249,doha,25.2867,51.5333,35.139999999999986,52,0,2.06,QA,1690682883
250,manpur,22.4333,75.6167,23.089999999999975,90,100,5.06,IN,1690683131
251,hithadhoo,-0.6,73.0833,27.970000000000027,74,96,3.44,MV,1690683131
252,amalapuram,16.5833,82.0167,27.310000000000002,79,100,4.52,IN,1690683131
253,narsaq,60.9167,-46.05,14.269999999999982,77,31,1.48,GL,1690683131
254,tessalit,20.1986,1.0114,30.94999999999999,42,9,4.0,ML,1690683133
255,tefe,-3.3542,-64.7114,25.930000000000007,48,10,0.86,BR,1690683133
256,bud,39.447,-86.1758,25.180000000000007,84,0,3.41,US,1690683133
257,nioro,13.35,-15.75,24.470000000000027,91,100,3.17,GM,1690683133
258,maniitsoq,65.4167,-52.9,5.470000000000027,88,100,5.92,GL,1690683133
259,wattegama,6.7989,81.4808,27.430000000000007,65,50,3.52,LK,1690683134
260,xining,36.6167,101.7667,20.819999999999993,46,0,0.09,CN,1690683134
261,katsuura,35.1333,140.3,29.720000000000027,74,33,6.54,JP,1690683134
262,chokurdakh,70.6333,147.9167,4.1200000000000045,89,100,5.33,RU,1690683134
263,singaraja,-8.112,115.0882,27.060000000000002,66,82,0.38,ID,1690683134
264,tucuman,-26.8241,-65.2226,16.720000000000027,55,0,2.11,AR,1690682881
265,paso de carrasco,-34.8603,-56.0522,10.29000000000002,100,0,4.12,UY,1690682846
266,bozoum,6.3193,16.3799,19.930000000000007,97,96,1.25,CF,1690683135
267,guerrero negro,27.9769,-114.0611,22.589999999999975,73,0,6.78,MX,1690683135
268,the valley,18.217,-63.0578,29.089999999999975,82,96,7.69,AI,1690683135
269,sandwick,60.0,-1.25,13.050000000000011,100,41,2.57,GB,1690683135
270,zhigansk,66.7697,123.3711,15.800000000000011,41,36,9.56,RU,1690683136
271,breytovo,58.2993,37.8617,13.910000000000025,90,100,3.6,RU,1690683136
272,vardo,70.3705,31.1107,10.139999999999986,100,100,3.09,NO,1690683136
273,lazaro cardenas,17.9583,-102.2,28.870000000000005,83,1,2.21,MX,1690683136
274,tasiilaq,65.6145,-37.6368,5.240000000000009,80,44,0.6,GL,1690683136
275,sebaco,12.8532,-86.0963,23.069999999999993,88,99,2.63,NI,1690683137
276,plyussa,58.4308,29.3654,14.160000000000025,71,97,2.7,RU,1690683137
277,taunggyi,20.7833,97.0333,19.319999999999993,96,100,1.29,MM,1690683137
278,cayenne,4.9333,-52.3333,24.170000000000016,94,20,1.03,GF,1690683137
279,sisimiut,66.9395,-53.6735,4.949999999999989,88,48,2.99,GL,1690683137
280,kutum,14.2,24.6667,25.920000000000016,53,41,2.8,SD,1690683138
281,sinnamary,5.3833,-52.95,26.430000000000007,87,33,4.92,GF,1690683138
282,chapais,49.7834,-74.8492,10.029999999999973,67,98,1.48,CA,1690683138
283,iseyin,7.9667,3.6,22.04000000000002,98,100,1.9,NG,1690683138
284,napier,-39.4833,176.9167,13.639999999999986,64,6,1.79,NZ,1690683138
285,talcahuano,-36.7167,-73.1167,12.970000000000027,100,75,1.03,CL,1690683139
286,kahului,20.8947,-156.47,31.160000000000025,57,0,10.8,US,1690682899
287,huarmey,-10.0681,-78.1522,20.189999999999998,84,56,4.2,PE,1690683139
288,padang,-0.9492,100.3543,30.180000000000007,76,100,0.48,ID,1690683139
289,tuban,-6.8976,112.0649,27.25999999999999,60,43,4.24,ID,1690683139
290,miramar,25.9873,-80.2323,30.160000000000025,78,0,3.6,US,1690683080
291,adre,13.4667,22.2,25.410000000000025,68,51,2.62,TD,1690683140
292,sterling,39.0062,-77.4286,27.589999999999975,66,40,5.14,US,1690682981
293,clyde river,70.4692,-68.5914,6.279999999999973,87,100,1.54,CA,1690683140
294,le vauclin,14.5452,-60.8388,28.180000000000007,78,40,5.14,MQ,1690683140
295,yeola,20.0333,74.4833,23.370000000000005,82,100,7.52,IN,1690683141
296,auki,-8.7676,160.7034,27.29000000000002,83,89,2.74,SB,1690683141
297,mitsamiouli,-11.3847,43.2844,24.060000000000002,64,0,1.42,KM,1690683141
298,kafanchan,9.5833,8.3,20.04000000000002,99,100,1.3,NG,1690683141
299,bernalillo,35.05,-106.6673,31.889999999999986,28,100,7.2,US,1690683142
300,leningradskiy,69.3833,178.4167,9.110000000000014,80,77,3.19,RU,1690683142
301,komsomolskiy,40.4272,71.7189,27.55000000000001,39,0,0.0,UZ,1690683142
302,telimele,10.9167,-13.3333,21.410000000000025,99,100,0.6,GN,1690683142
303,shenjiamen,29.9576,122.298,28.529999999999973,83,76,8.5,CN,1690683143
304,kruisfontein,-34.0033,24.7314,11.439999999999998,92,100,17.38,ZA,1690683143
305,balkhash,46.844,74.9804,26.49000000000001,50,30,1.0,KZ,1690683143
306,quatre cocos,-20.2078,57.7625,22.420000000000016,72,51,5.85,MU,1690683143
307,victor harbor,-35.5667,138.6167,13.310000000000002,77,63,6.96,AU,1690683143
308,khani,41.9563,42.9566,13.910000000000025,95,1,1.27,GE,1690683144
309,college,64.8569,-147.8028,24.139999999999986,59,20,5.66,US,1690682897
310,hokitika,-42.7167,170.9667,11.45999999999998,63,7,1.61,NZ,1690683144
311,bom despacho,-19.7364,-45.2522,19.660000000000025,53,91,2.92,BR,1690683144
312,opuwo,-18.0607,13.84,8.480000000000018,55,0,2.6,NA,1690683144
313,laguna,38.421,-121.4238,36.50999999999999,27,0,5.14,US,1690683145
314,northam,51.0333,-4.2167,15.519999999999982,89,41,8.79,GB,1690683145
315,lagoa,39.05,-27.9833,22.189999999999998,86,6,3.59,PT,1690683145
316,filingue,14.3521,3.3168,30.670000000000016,54,70,1.69,NE,1690683145
317,anadyr,64.75,177.4833,17.430000000000007,63,40,5.0,RU,1690683146
318,sao joao da barra,-21.6403,-41.0511,20.180000000000007,77,100,5.52,BR,1690683050
319,husavik,66.0449,-17.3389,10.319999999999993,91,100,2.05,IS,1690683146
320,iqaluit,63.7506,-68.5145,9.0,81,40,1.54,CA,1690683146
321,severo-kurilsk,50.6789,156.125,12.199999999999989,93,100,5.9,RU,1690683147
322,svetlyy,54.675,20.1347,17.180000000000007,96,100,5.01,RU,1690683147
323,presidencia roque saenz pena,-26.7852,-60.4388,13.779999999999973,48,0,2.81,AR,1690683147
324,kingsport,36.5484,-82.5618,22.019999999999982,99,27,0.88,US,1690682923
325,kinshasa,-4.3246,15.3215,24.05000000000001,58,0,2.35,CD,1690683142
326,pacov,49.4708,15.0017,15.829999999999984,87,100,2.25,CZ,1690683148
327,iquitos,-3.7481,-73.2472,23.170000000000016,88,40,1.54,PE,1690683148
328,pevek,69.7008,170.3133,4.8700000000000045,90,100,3.06,RU,1690683138
329,villacarrillo,38.1156,-3.0848,22.860000000000014,19,0,0.33,ES,1690683148
330,turbat,26.0023,63.044,27.649999999999977,80,66,3.85,PK,1690683148
331,tautira,-17.7333,-149.15,25.30000000000001,78,100,8.61,PF,1690683149
332,sandviken,60.6167,16.7667,13.230000000000018,90,100,2.08,SE,1690683149
333,carbondale,37.7273,-89.2168,22.310000000000002,94,0,0.0,US,1690682928
334,asyut,27.181,31.1837,26.25,31,0,3.76,EG,1690683149
335,marsh harbour,26.5412,-77.0636,29.600000000000023,75,66,5.14,BS,1690683149
336,ostrovnoy,68.0531,39.5131,14.389999999999986,74,100,3.41,RU,1690683149
337,kysyl-syr,63.8986,122.7617,23.079999999999984,33,2,4.17,RU,1690683150
338,nanortalik,60.1432,-45.2371,5.660000000000025,87,99,1.27,GL,1690683150
339,gazanjyk,39.2446,55.5154,27.160000000000025,67,0,4.71,TM,1690683150
340,abu dhabi,24.4667,54.3667,34.00999999999999,72,24,1.54,AE,1690683150
341,margate,51.3813,1.3862,15.639999999999986,87,100,1.79,GB,1690683151
342,olafsvik,64.8945,-23.7142,11.220000000000027,80,6,1.51,IS,1690683151
343,tateyama,34.9833,139.8667,28.769999999999982,80,9,6.37,JP,1690683151
344,gushikawa,26.3544,127.8686,32.14999999999998,74,75,6.17,JP,1690683151
345,bathsheba,13.2167,-59.5167,27.45999999999998,82,99,5.12,BB,1690683151
346,te anau,-45.4167,167.7167,11.220000000000027,76,7,1.78,NZ,1690683152
347,paraiso,9.8383,-83.8656,22.100000000000023,81,99,1.15,CR,1690683152
348,codrington,-38.2667,141.9667,13.779999999999973,83,100,8.23,AU,1690683152
349,sapernoye,60.7167,29.9505,16.060000000000002,97,100,3.46,RU,1690683152
350,shaoyang,27.2315,111.4525,30.839999999999975,67,95,1.84,CN,1690683152
351,sydney,-33.8679,151.2073,24.769999999999982,48,0,3.13,AU,1690682959
352,kununurra,-15.7667,128.7333,30.139999999999986,39,100,4.63,AU,1690683153
353,vidim,56.4088,103.1106,17.30000000000001,96,100,4.14,RU,1690683137
354,san nicolas,18.1725,120.5953,29.100000000000023,79,75,2.06,PH,1690683153
355,pangkalanbuun,-2.6833,111.6167,28.69999999999999,60,100,3.34,ID,1690683153
356,ambilobe,-13.2,49.05,21.149999999999977,73,95,0.89,MG,1690683154
357,guayaramerin,-10.8368,-65.3614,24.560000000000002,54,22,1.29,BO,1690683154
358,snasa,64.2457,12.3778,11.819999999999993,95,99,0.82,NO,1690683154
359,richards bay,-28.783,32.0377,18.680000000000007,87,62,2.17,ZA,1690683154
360,puerto escondido,15.85,-97.0667,30.610000000000014,66,100,1.54,MX,1690683154
361,porbandar,21.6422,69.6093,27.430000000000007,85,93,8.88,IN,1690683155
362,egvekinot,66.3167,-179.1667,7.569999999999993,97,100,1.81,RU,1690683155
363,saldanha,-33.0117,17.9442,11.379999999999995,62,45,6.13,ZA,1690683155
364,raduzhnyy,62.0961,77.475,20.0,76,54,3.51,RU,1690683156
365,kargopol,61.5071,38.9456,11.819999999999993,92,99,0.77,RU,1690683156
366,gornopravdinsk,60.05,69.9,16.75,92,85,3.7,RU,1690683157
367,pingliang,35.5392,106.6861,22.5,78,85,1.99,CN,1690683157
368,khandyga,62.6667,135.6,19.600000000000023,50,100,1.62,RU,1690683157
369,ewa beach,21.3156,-158.0072,31.120000000000005,65,40,6.69,US,1690683157
370,klaksvik,62.2266,-6.589,13.660000000000025,98,100,5.74,FO,1690683157
371,sainte-marie,-20.8968,55.5496,21.220000000000027,80,75,6.69,RE,1690683158
372,acapulco,16.8634,-99.8901,30.05000000000001,70,100,3.09,MX,1690683158
373,dickinson,29.4608,-95.0513,31.889999999999986,75,0,4.63,US,1690683158
374,aykhal,66.0,111.5,23.55000000000001,36,0,1.32,RU,1690683158
375,khasan,42.4308,130.6434,27.30000000000001,71,99,1.49,RU,1690683159
376,muravlenko,63.7898,74.523,15.910000000000025,89,100,7.13,RU,1690683159
377,roald,62.5833,6.1333,16.120000000000005,100,75,2.06,NO,1690683159
378,fort-shevchenko,44.5086,50.263,25.49000000000001,74,2,3.46,KZ,1690683160
379,vallenar,-28.5708,-70.7581,16.79000000000002,70,86,1.0,CL,1690683160
380,mount vernon,40.9126,-73.8371,27.230000000000018,79,75,9.26,US,1690683129
381,les cayes,18.2,-73.75,26.779999999999973,84,68,1.88,HT,1690683160
382,aquiraz,-3.9014,-38.3911,26.920000000000016,87,6,3.94,BR,1690683160
383,kankan,10.3854,-9.3057,22.19999999999999,96,100,2.85,GN,1690683160
384,iki-burul,45.8208,44.6472,18.75999999999999,60,0,3.27,RU,1690683161
385,azare,11.6765,10.1948,26.230000000000018,67,52,4.54,NG,1690683161
386,aripuana,-9.1667,-60.6333,23.519999999999982,44,95,1.22,BR,1690683161
387,chupa,66.27,33.0549,13.029999999999973,88,0,2.93,RU,1690683161
388,beian,63.6559,9.5683,12.930000000000007,93,20,2.06,NO,1690683162
389,bintulu,3.1667,113.0333,29.329999999999984,73,100,1.56,MY,1690683162
390,russell,32.3502,-85.1999,28.930000000000007,78,0,0.0,US,1690683162
391,soyo,-6.1349,12.3689,20.370000000000005,87,91,4.22,AO,1690683162
392,burnie,-41.0667,145.9167,13.730000000000018,89,100,7.81,AU,1690683162
393,deputatskiy,69.3,139.9,5.680000000000007,54,100,4.75,RU,1690683138
394,gibara,21.1097,-76.1317,26.769999999999982,82,0,5.32,CU,1690683163
395,whitehorse,60.7161,-135.0538,27.939999999999998,30,9,0.89,CA,1690682882
396,taybad,34.74,60.7756,27.430000000000007,20,0,7.01,IR,1690683163
397,la rioja,42.25,-2.5,15.029999999999973,92,0,1.98,ES,1690683163
398,guanica,17.9716,-66.908,29.620000000000005,59,100,3.8,PR,1690683164
399,gisborne,-38.6533,178.0042,12.060000000000002,56,22,1.78,NZ,1690683164
400,champerico,14.3,-91.9167,26.680000000000007,87,100,2.73,GT,1690683164
401,los llanos de aridane,28.6585,-17.9182,20.00999999999999,92,0,4.12,ES,1690683164
402,zboriste,45.1458,16.0178,17.480000000000018,80,77,1.77,BA,1690683165
403,oistins,13.0667,-59.5333,27.319999999999993,81,100,5.12,BB,1690683165
404,port shepstone,-30.7414,30.455,19.05000000000001,36,63,12.05,ZA,1690683165
405,brownfield,33.1812,-102.2744,32.89999999999998,25,0,3.94,US,1690683165
406,potoru,7.5072,-11.4786,23.139999999999986,98,100,1.09,SL,1690683165
407,denpasar,-8.65,115.2167,26.95999999999998,78,40,6.69,ID,1690682944
408,yuryevets,57.3201,43.1041,17.220000000000027,97,100,3.83,RU,1690683166
409,dicabisagan,17.0818,122.4157,29.620000000000005,75,100,1.29,PH,1690683166
410,lexington,37.9887,-84.4777,28.149999999999977,69,0,1.54,US,1690682869
411,binga,-17.6203,27.3414,16.930000000000007,46,49,1.43,ZW,1690683167
412,raudeberg,61.9875,5.1352,14.519999999999982,84,100,1.22,NO,1690683167
413,yerbogachen,61.2767,108.0108,24.079999999999984,61,23,4.53,RU,1690683167
414,gewane,10.1664,40.6453,29.00999999999999,49,76,6.83,ET,1690683167
415,bundaberg,-24.85,152.35,21.629999999999995,51,8,3.05,AU,1690683167
416,geraldton,-28.7667,114.6,17.379999999999995,88,40,5.14,AU,1690683167
417,zhezkazgan,47.8043,67.7144,23.139999999999986,49,0,3.0,KZ,1690683168
418,tete,-16.1564,33.5867,15.199999999999989,77,0,2.06,MZ,1690683168
419,oswego,43.4501,-76.1497,17.69999999999999,99,61,1.26,US,1690683168
420,marystown,47.1666,-55.1483,13.95999999999998,100,99,1.34,CA,1690683168
421,zirgan,53.2222,55.9185,23.060000000000002,52,100,5.0,RU,1690683168
422,kaliua,-5.0606,31.7936,19.339999999999975,49,55,2.08,TZ,1690683169
423,daru,-9.0763,143.2092,26.99000000000001,76,53,6.99,PG,1690683169
424,pitanga,-24.7572,-51.7614,13.509999999999991,97,68,1.11,BR,1690683109
425,kitoy,52.6,103.9,19.639999999999986,79,100,1.68,RU,1690683169
426,codajas,-3.8367,-62.0569,26.529999999999973,46,0,0.93,BR,1690683169
427,beberibe,-4.1797,-38.1306,25.24000000000001,85,6,4.41,BR,1690682883
428,sinop,41.7711,34.8709,13.639999999999986,78,0,1.88,TR,1690683170
429,santa fe,-31.6333,-60.7,15.70999999999998,66,99,4.92,AR,1690683170
430,japura,-0.3167,102.35,27.470000000000027,74,100,2.79,ID,1690683170
431,pochutla,15.7432,-96.4661,29.49000000000001,82,100,1.49,MX,1690683170
432,mezen,65.8522,44.24,18.180000000000007,98,95,2.55,RU,1690683170
433,jasper,37.2001,-94.3502,30.639999999999986,64,0,2.57,US,1690683171
434,waingapu,-9.6567,120.2641,28.350000000000023,65,33,5.7,ID,1690683171
435,makakilo city,21.3469,-158.0858,30.329999999999984,65,40,6.69,US,1690683171
436,lompoc,34.6391,-120.4579,21.180000000000007,72,75,1.79,US,1690683171
437,svilengrad,41.7667,26.2,18.970000000000027,62,0,0.78,BG,1690683172
438,olden,61.8364,6.8064,13.560000000000002,87,100,0.48,NO,1690683172
439,sidi ali,36.0998,0.4206,24.230000000000018,74,49,1.3,DZ,1690683172
440,nouadhibou,20.931,-17.0347,23.139999999999986,73,37,3.09,MR,1690683172
441,antalaha,-14.9003,50.2788,21.05000000000001,79,100,3.72,MG,1690683172
442,moussoro,13.6408,16.4901,31.029999999999973,48,100,4.44,TD,1690683173
443,zelenoborskiy,66.845,32.3622,9.95999999999998,91,17,3.39,RU,1690683173
444,towada,40.6127,141.2067,33.360000000000014,45,77,3.58,JP,1690683173
445,asau,46.4333,26.4,14.75,76,15,2.42,RO,1690683173
446,puerto narino,-3.7703,-70.3831,24.94999999999999,66,22,0.18,CO,1690683173
447,bilibino,68.0546,166.4372,7.019999999999982,95,100,1.85,RU,1690683174
448,canmore,51.0834,-115.3521,21.20999999999998,60,80,3.09,CA,1690683174
449,tambopata,-12.7333,-69.1833,22.230000000000018,77,46,1.18,PE,1690683174
450,sao borja,-28.6606,-56.0044,9.009999999999991,77,0,3.16,BR,1690682885
451,caravelas,-17.7125,-39.2481,21.54000000000002,90,100,3.22,BR,1690683175
452,queimadas,-10.9783,-39.6264,20.870000000000005,84,4,3.25,BR,1690683175
453,cefalu,38.0386,14.0229,24.360000000000014,76,0,0.45,IT,1690683175
454,ixtapa,20.7,-105.2,30.720000000000027,70,40,4.12,MX,1690683175
455,mnogovershinnyy,53.9353,139.9242,19.560000000000002,71,100,1.3,RU,1690683138
456,strezhevoy,60.7333,77.5889,20.69999999999999,66,46,2.74,RU,1690683176
457,carroll,39.5501,-77.0164,25.680000000000007,72,2,3.13,US,1690683176
458,libourne,44.9167,-0.25,16.430000000000007,91,100,2.29,FR,1690683176
459,shelburne,44.0787,-80.2041,16.129999999999995,73,3,3.12,CA,1690683176
460,diego de almagro,-26.3667,-70.05,16.20999999999998,51,0,0.86,CL,1690683176
461,mantua,45.1667,10.7833,21.680000000000007,89,100,0.89,IT,1690683177
462,derzhavinsk,51.1,66.3167,21.160000000000025,66,0,4.57,KZ,1690683177
463,arkhangelsk,64.5401,40.5433,14.75,88,100,1.27,RU,1690682917
464,morro bay,35.3658,-120.8499,35.920000000000016,9,61,3.13,US,1690683178
465,guymon,36.6828,-101.4816,30.149999999999977,45,0,4.63,US,1690683178
466,warwick,41.7001,-71.4162,23.529999999999973,90,75,3.09,US,1690683179
467,demba,-5.51,22.2667,20.99000000000001,43,5,0.64,CD,1690683179
468,esna,25.2934,32.554,30.160000000000025,16,29,5.32,EG,1690683179
469,isiro,2.7739,27.616,18.480000000000018,99,28,0.32,CD,1690683179
470,pitsunda,43.1592,40.3378,18.029999999999973,68,0,1.61,GE,1690683179
471,upington,-28.4478,21.2561,6.360000000000014,75,40,3.09,ZA,1690683180
472,morelia,19.7008,-101.1844,20.670000000000016,88,55,1.75,MX,1690683014
473,bandarbeyla,9.4942,50.8122,24.589999999999975,82,13,12.14,SO,1690683180
474,yagodnoye,62.55,149.6667,17.839999999999975,42,17,5.73,RU,1690683180
475,tlacotepec,20.0667,-97.8667,18.120000000000005,97,100,0.55,MX,1690683180
476,port-gentil,-0.7193,8.7815,23.069999999999993,83,100,6.46,GA,1690683181
477,iwanai,42.9744,140.5089,27.629999999999995,73,100,5.05,JP,1690683181
478,camopi,3.1655,-52.3158,22.55000000000001,99,9,1.16,GF,1690683181
479,flinders,-34.5833,150.8552,24.80000000000001,50,0,5.81,AU,1690683181
480,wajima,37.4,136.9,29.70999999999998,70,96,4.55,JP,1690683181
481,grand gaube,-20.0064,57.6608,22.579999999999984,73,1,2.68,MU,1690683182
482,bocaiuva,-17.1078,-43.815,21.00999999999999,57,100,2.52,BR,1690683182
483,natal,-5.795,-35.2094,25.50999999999999,88,75,2.06,BR,1690683057
484,vytegra,61.0064,36.4481,13.480000000000018,85,100,1.56,RU,1690683182
485,pangoa,-12.1167,-73.0,18.339999999999975,95,35,1.52,PE,1690683182
486,praia,14.9215,-23.5087,25.44999999999999,78,20,5.66,CV,1690683183
487,malanje,-9.5402,16.341,17.579999999999984,68,0,1.49,AO,1690683183
488,fare,-16.7,-151.0167,26.410000000000025,72,85,7.68,PF,1690683183
489,koulikoro,14.0,-7.75,24.589999999999975,80,98,3.89,ML,1690683183
490,lahaina,20.8783,-156.6825,31.149999999999977,70,24,3.97,US,1690683183
491,richmond,37.5538,-77.4603,26.420000000000016,84,75,4.12,US,1690682951
492,alugan,12.2188,125.4808,28.439999999999998,77,100,3.04,PH,1690683184
493,terme,41.2092,36.9739,18.110000000000014,76,65,1.44,TR,1690683184
494,estrela,-28.0611,-50.9383,7.600000000000023,97,67,2.17,BR,1690682968
495,haines junction,60.7522,-137.5108,25.120000000000005,38,82,4.12,CA,1690683184
496,amapa,1.0,-52.0,22.529999999999973,97,0,1.05,BR,1690683184
497,ucluelet,48.9329,-125.5528,17.980000000000018,80,0,1.34,CA,1690683037
498,camana,-16.6228,-72.7111,18.819999999999993,80,1,2.87,PE,1690683185
499,lanxi,29.2195,119.477,26.870000000000005,89,100,1.28,CN,1690683185
500,bongandanga,1.5,21.05,22.189999999999998,95,100,0.34,CD,1690683185
501,pimenta bueno,-11.6725,-61.1936,23.660000000000025,44,63,1.5,BR,1690682887
502,baykit,61.67,96.37,23.680000000000007,63,100,2.96,RU,1690683186
503,naifaru,5.4444,73.3657,28.20999999999998,76,100,5.83,MV,1690683186
504,teya,60.3778,92.6267,20.220000000000027,80,100,2.11,RU,1690683186
505,koslan,63.4564,48.8989,19.329999999999984,95,33,2.46,RU,1690683187
506,saint-louis,16.3333,-15.0,25.79000000000002,73,100,9.46,SN,1690683187
507,gizo,-8.103,156.8419,27.779999999999973,80,70,5.15,SB,1690683187
508,kanye,-24.9667,25.3327,3.339999999999975,62,0,5.73,BW,1690683187
509,kamenka,51.3223,42.7678,15.680000000000007,96,100,7.43,RU,1690683188
510,ongole,15.5,80.05,28.629999999999995,66,29,6.05,IN,1690682668
511,yumen,40.2833,97.2,27.319999999999993,30,100,4.57,CN,1690683188
512,fortaleza,-3.7227,-38.5247,26.939999999999998,83,40,2.57,BR,1690683140
513,douglas,41.3,-96.167,27.230000000000018,64,0,1.54,US,1690683188
514,ingraj bazar,25.0,88.15,31.089999999999975,71,2,3.19,IN,1690683189
515,ternate,0.8,127.4,27.879999999999995,79,100,4.42,ID,1690683189
516,jumla,29.2747,82.1838,18.79000000000002,85,98,0.64,NP,1690683189
517,coquimbo,-29.9533,-71.3436,14.399999999999977,90,37,1.11,CL,1690683189
518,skjervoy,70.0311,20.9714,12.149999999999977,95,97,1.69,NO,1690683189
519,petauke,-14.2426,31.3253,15.930000000000007,52,9,1.46,ZM,1690683190
520,merauke,-8.4667,140.3333,27.810000000000002,69,44,4.83,ID,1690683190
521,bubaque,11.2833,-15.8333,25.170000000000016,91,100,7.19,GW,1690683190
522,paamiut,61.994,-49.6678,5.310000000000002,90,100,6.12,GL,1690683190
523,zeya,53.75,127.2667,28.430000000000007,45,6,1.03,RU,1690683191
524,svetlogorsk,52.6333,29.7333,12.800000000000011,87,40,1.45,BY,1690683191
525,noumea,-22.2763,166.4572,23.139999999999986,99,55,5.16,NC,1690683108
526,tabou,4.423,-7.3528,24.980000000000018,88,99,3.93,CI,1690683022
527,manaure,11.7751,-72.4445,28.870000000000005,72,8,6.34,CO,1690683191
528,salalah,17.0151,54.0924,26.19999999999999,89,100,3.09,OM,1690683191
529,brzeg,50.8608,17.4674,15.95999999999998,87,93,2.63,PL,1690683192
530,kavaratti,10.5669,72.642,28.170000000000016,75,12,7.5,IN,1690683192
531,viru,-8.4167,-78.75,21.930000000000007,77,5,2.04,PE,1690683192
532,namibe,-15.1961,12.1522,16.50999999999999,69,10,3.76,AO,1690683192
533,dong xoai,11.5333,106.9167,26.060000000000002,92,97,3.87,VN,1690683192
534,innisfail,-17.5333,146.0333,21.920000000000016,71,28,4.55,AU,1690683193
535,jalu,29.0331,21.5482,27.089999999999975,46,0,4.65,LY,1690683193
536,zaysan,47.4667,84.8667,24.94999999999999,32,0,1.06,KZ,1690683193
537,karachev,53.1229,34.9852,12.589999999999975,98,10,3.22,RU,1690683193
538,murdochville,48.9583,-65.5006,13.639999999999986,88,100,1.45,CA,1690683194
539,buala,-8.145,159.5921,28.639999999999986,73,100,3.06,SB,1690683194
540,san policarpo,12.1791,125.5072,28.360000000000014,78,100,3.34,PH,1690683194
541,marzuq,14.4,46.4667,25.120000000000005,64,90,3.1,YE,1690683194
542,maningrida,-12.0667,134.2667,29.069999999999993,42,9,5.04,AU,1690683194
543,viedma,-40.8135,-62.9967,16.899999999999977,47,100,7.11,AR,1690683195
544,lorengau,-2.0226,147.2712,29.720000000000027,68,51,1.11,PG,1690683195
545,dukat,62.55,155.55,14.129999999999995,41,12,1.44,RU,1690683195
546,sitka,57.0531,-135.33,19.089999999999975,72,20,5.14,US,1690683195
547,mehamn,71.0357,27.8492,10.120000000000005,100,100,3.09,NO,1690683195
548,kholm,59.2667,32.85,11.240000000000009,96,59,2.15,RU,1690683195
549,umm kaddadah,13.6017,26.6876,31.04000000000002,46,95,6.38,SD,1690683196
550,turukhansk,65.8167,87.9833,23.04000000000002,63,6,1.31,RU,1690683196
551,portland,45.5234,-122.6762,26.810000000000002,50,20,5.14,US,1690682897
552,north bend,43.4065,-124.2243,19.55000000000001,72,20,5.66,US,1690683196
553,yulara,-25.2406,130.9889,21.54000000000002,49,0,2.7,AU,1690683197
554,carballo,43.213,-8.691,17.30000000000001,92,58,0.29,ES,1690683197
555,sioux lookout,50.1001,-91.917,18.189999999999998,55,40,1.54,CA,1690683197
556,orebro,59.2741,15.2066,16.220000000000027,100,75,2.06,SE,1690683197
557,bindi,9.9167,-11.45,21.180000000000007,99,100,1.5,SL,1690683197
558,mariental,-24.6333,17.9667,2.019999999999982,92,5,3.83,NA,1690683198
559,newport,51.5877,-2.9984,16.689999999999998,89,71,8.65,GB,1690683198
560,sambava,-14.2667,50.1667,21.620000000000005,73,100,5.05,MG,1690683198
561,rosetta,31.4044,30.4164,26.589999999999975,62,0,6.9,EG,1690683198
562,americus,32.0724,-84.2327,26.920000000000016,83,0,1.54,US,1690683199
563,rawson,-43.3002,-65.1023,13.25,45,95,6.55,AR,1690683024
564,pangody,65.85,74.4859,12.0,93,100,6.04,RU,1690683199
565,aksu,41.1231,80.2644,25.420000000000016,47,41,2.71,CN,1690683199
566,saint-joseph,-21.3667,55.6167,18.360000000000014,73,16,4.1,RE,1690683199
567,ilhabela,-23.7781,-45.3581,17.819999999999993,85,100,1.34,BR,1690682925
568,conde,-7.2597,-34.9075,23.850000000000023,94,0,3.6,BR,1690683200
569,mayo,38.8876,-76.5119,28.120000000000005,86,0,4.12,US,1690683200
570,ambanja,-13.6833,48.45,20.350000000000023,79,40,1.53,MG,1690683200
571,valparaiso,-33.0393,-71.6273,15.70999999999998,66,0,2.06,CL,1690683202
